{
  "day1": [
    {
      "name": "N서울타워",
      "lat": 37.551169,
      "lng": 126.988227,
      "address": "서울특별시 용산구 남산공원길 105",
      "description": "서울의 전경을 한눈에 내려다볼 수 있는 대표적인 관광 명소입니다.",
      "departTime": "10:00",
      "arriveTime": "12:00"
    },
    {
      "name": "명동",
      "lat": 37.564213,
      "lng": 126.982707,
      "address": "서울특별시 중구 명동",
      "description": "서울의 대표적인 쇼핑 거리로, 다양한 상점과 음식점이 밀집해 있습니다.",
      "departTime": "13:00",
      "arriveTime": "15:00"
    },
    {
      "name": "남산한옥마을",
      "lat": 37.554254,
      "lng": 126.969039,
      "address": "서울특별시 중구 필동 2가 84-1",
      "description": "전통 한옥의 아름다움을 간직한 마을로, 한국의 전통 생활 문화를 체험할 수 있습니다.",
      "departTime": "16:00",
      "arriveTime": "18:00"
    },
    {
      "name": "이태원",
      "lat": 37.534473,
      "lng": 126.994565,
      "address": "서울특별시 용산구 이태원동",
      "description": "다양한 문화가 공존하는 이국적인 분위기의 거리로, 독특한 음식과 쇼핑을 즐길 수 있습니다.",
      "departTime": "19:00",
      "arriveTime": "21:00"
    },
    {
      "name": "한강 야경",
      "lat": 37.530453,
      "lng": 126.924823,
      "address": "서울특별시 영등포구 여의도동",
      "description": "한강변에서 서울의 야경을 즐기며 하루를 마무리할 수 있는 장소입니다.",
      "departTime": "21:00",
      "arriveTime": "22:00"
    }
  ],
  "day2": [
    {
      "name": "경복궁",
      "lat": 37.579617,
      "lng": 126.977041,
      "address": "서울특별시 종로구 세종로 1-1",
      "description": "조선시대의 대표적인 궁궐로, 한국 전통 건축의 아름다움을 감상할 수 있는 장소입니다.",
      "departTime": "10:00",
      "arriveTime": "12:00"
    },
    {
      "name": "북촌 한옥마을",
      "lat": 37.582544,
      "lng": 126.985747,
      "address": "서울특별시 종로구 계동길 37",
      "description": "조선시대의 한옥이 잘 보존된 마을로, 한국의 전통문화를 체험할 수 있습니다.",
      "departTime": "13:00",
      "arriveTime": "15:00"
    },
    {
      "name": "인사동",
      "lat": 37.574324,
      "lng": 126.984923,
      "address": "서울특별시 종로구 인사동",
      "description": "전통과 현대가 조화를 이루는 문화 거리로, 다양한 공예품과 전통음식을 즐길 수 있습니다.",
      "departTime": "16:00",
      "arriveTime": "18:00"
    },
    {
      "name": "삼청동 카페거리",
      "lat": 37.582187,
      "lng": 126.983955,
      "address": "서울특별시 종로구 삼청동",
      "description": "아기자기한 카페와 상점이 밀집해 있는 거리로, 산책과 여유로운 시간을 즐길 수 있습니다.",
      "departTime": "19:00",
      "arriveTime": "21:00"
    },
    {
      "name": "청계천 야경",
      "lat": 37.568537,
      "lng": 126.977829,
      "address": "서울특별시 종로구 청계천로",
      "description": "서울의 도심 속에서 청계천의 아름다운 야경을 감상하며 산책할 수 있습니다.",
      "departTime": "21:00",
      "arriveTime": "22:00"
    }
  ],
  "day3": [
    {
      "name": "국립중앙박물관",
      "lat": 37.523990,
      "lng": 126.980366,
      "address": "서울특별시 용산구 서빙고로 137",
      "description": "한국의 역사와 문화를 깊이 있게 체험할 수 있는 대형 박물관입니다.",
      "departTime": "10:00",
      "arriveTime": "12:00"
    },
    {
      "name": "용산전자상가",
      "lat": 37.529736,
      "lng": 126.965154,
      "address": "서울특별시 용산구 한강대로 23길 55",
      "description": "다양한 전자제품을 저렴하게 구매할 수 있는 전자 상가입니다.",
      "departTime": "13:00",
      "arriveTime": "15:00"
    },
    {
      "name": "DDP (동대문디자인플라자)",
      "lat": 37.566295,
      "lng": 127.009540,
      "address": "서울특별시 중구 을지로 281",
      "description": "현대적이고 독창적인 건축물로 다양한 전시와 공연이 열리는 복합문화공간입니다.",
      "departTime": "16:00",
      "arriveTime": "18:00"
    },
    {
      "name": "동대문 야시장",
      "lat": 37.571942,
      "lng": 127.009977,
      "address": "서울특별시 중구 을지로",
      "description": "서울의 대표적인 야시장으로, 다양한 음식과 쇼핑을 즐길 수 있는 장소입니다.",
      "departTime": "19:00",
      "arriveTime": "21:00"
    },
    {
      "name": "서울숲",
      "lat": 37.544058,
      "lng": 127.037601,
      "address": "서울특별시 성동구 성수동1가",
      "description": "도심 속에서 자연을 느끼며 산책을 즐길 수 있는 대형 공원입니다.",
      "departTime": "21:00",
      "arriveTime": "22:00"
    }
  ],
  "day4": [
    {
      "name": "롯데월드",
      "lat": 37.510369,
      "lng": 127.098110,
      "address": "서울특별시 송파구 올림픽로 240",
      "description": "다양한 놀이기구와 공연을 즐길 수 있는 대형 테마파크입니다.",
      "departTime": "10:00",
      "arriveTime": "13:00"
    },
    {
      "name": "석촌호수",
      "lat": 37.509194,
      "lng": 127.100837,
      "address": "서울특별시 송파구 석촌호수로",
      "description": "서울의 도심 속에서 자연과 함께 여유로운 시간을 보낼 수 있는 호수 공원입니다.",
      "departTime": "14:00",
      "arriveTime": "16:00"
    },
    {
      "name": "올림픽공원",
      "lat": 37.515732,
      "lng": 127.121500,
      "address": "서울특별시 송파구 올림픽로 424",
      "description": "대규모 공원으로, 다양한 문화 활동과 산책을 즐길 수 있는 장소입니다.",
      "departTime": "17:00",
      "arriveTime": "19:00"
    },
    {
      "name": "가락시장 야경",
      "lat": 37.492731,
      "lng": 127.119052,
      "address": "서울특별시 송파구 가락동",
      "description": "가락시장의 밤은 다양한 먹거리를 즐길 수 있는 활기찬 분위기로 가득합니다.",
      "departTime": "19:00",
      "arriveTime": "21:00"
    },
    {
      "name": "잠실 야경",
      "lat": 37.513272,
      "lng": 127.102744,
      "address": "서울특별시 송파구 잠실동",
      "description": "롯데월드타워와 한강이 어우러진 서울의 대표적인 야경을 즐길 수 있는 장소입니다.",
      "departTime": "21:00",
      "arriveTime": "22:00"
    }
  ],
"day5": [
    {
      "name": "홍대거리",
      "lat": 37.556069,
      "lng": 126.923844,
      "address": "서울특별시 마포구 서교동",
      "description": "젊음과 예술의 거리로, 다양한 예술 작품과 공연을 즐길 수 있습니다.",
      "departTime": "10:00",
      "arriveTime": "12:00"
    },
    {
      "name": "이화여대 길",
      "lat": 37.561703,
      "lng": 126.946924,
      "address": "서울특별시 서대문구 대현동",
      "description": "서울에서 가장 트렌디한 패션 거리 중 하나로, 젊고 활기찬 분위기를 느낄 수 있는 장소입니다.",
      "departTime": "13:00",
      "arriveTime": "15:00"
    },
    {
      "name": "서울 월드컵 경기장",
      "lat": 37.568394,
      "lng": 126.897605,
      "address": "서울특별시 마포구 성산로 240",
      "description": "2002년 FIFA 월드컵을 기념하는 경기장으로, 서울의 상징적인 장소 중 하나입니다.",
      "departTime": "16:00",
      "arriveTime": "18:00"
    },
    {
      "name": "합정동 카페거리",
      "lat": 37.549404,
      "lng": 126.913500,
      "address": "서울특별시 마포구 합정동",
      "description": "다양한 스타일의 카페와 상점이 밀집해 있는 거리로, 산책과 휴식을 즐길 수 있는 곳입니다.",
      "departTime": "19:00",
      "arriveTime": "21:00"
    },
    {
      "name": "마포대교 야경",
      "lat": 37.537056,
      "lng": 126.948907,
      "address": "서울특별시 마포구 마포동",
      "description": "한강을 가로지르는 다리에서 서울의 아름다운 야경을 감상할 수 있는 장소입니다.",
      "departTime": "21:00",
      "arriveTime": "22:00"
    }
  ],
  "day6": [
    {
      "name": "광장시장",
      "lat": 37.570368,
      "lng": 126.999205,
      "address": "서울특별시 종로구 예지동 88",
      "description": "전통시장으로, 다양한 한국 음식을 맛볼 수 있는 곳입니다.",
      "departTime": "10:00",
      "arriveTime": "12:00"
    },
    {
      "name": "덕수궁",
      "lat": 37.566347,
      "lng": 126.975868,
      "address": "서울특별시 중구 세종대로 99",
      "description": "조선의 궁궐 중 하나로, 도심 속에서 역사와 문화를 느낄 수 있는 장소입니다.",
      "departTime": "13:00",
      "arriveTime": "15:00"
    },
    {
      "name": "청계천 산책",
      "lat": 37.569627,
      "lng": 126.977041,
      "address": "서울특별시 종로구 청계천로",
      "description": "서울 도심 속에서 자연과 함께 여유로운 산책을 즐길 수 있는 곳입니다.",
      "departTime": "16:00",
      "arriveTime": "18:00"
    },
    {
      "name": "서울로7017",
      "lat": 37.554539,
      "lng": 126.971338,
      "address": "서울특별시 중구 만리동 2가",
      "description": "서울의 옛 고가도로를 재탄생시켜 만든 공원으로, 도심 속에서 산책과 휴식을 즐길 수 있습니다.",
      "departTime": "19:00",
      "arriveTime": "21:00"
    },
    {
      "name": "남대문시장 야경",
      "lat": 37.559144,
      "lng": 126.977412,
      "address": "서울특별시 중구 남대문시장길 21",
      "description": "서울의 대표적인 전통시장의 야경을 감상하며 다양한 먹거리와 쇼핑을 즐길 수 있는 장소입니다.",
      "departTime": "21:00",
      "arriveTime": "22:00"
    }
  ]
}